{
  "locations": [
    {
      "address": "900 Court St NE",
      "city": "Salem",
      "location": {
        "lat": 44.938502,
        "lng": -123.030474
      },
      "state": "OR",
      "title": "Oregon State Capitol",
      "zipcode": "97301"
    },
    {
      "address": "890 Oak St SE",
      "city": "Salem",
      "location": {
        "lat": 44.932337,
        "lng": -123.034181
      },
      "state": "OR",
      "title": "Salem Health - Hospital",
      "zipcode": "97301"
    },
    {
      "address": "200 Water St NE",
      "city": "Salem",
      "location": {
        "lat": 44.942180,
        "lng": -123.042549
      },
      "state": "OR",
      "title": "Riverfront City Park",
      "zipcode": "97301"
    },
    {
      "address": "471 Court St NE",
      "city": "Salem",
      "location": {
        "lat": 44.940984,
        "lng": -123.036755
      },
      "state": "OR",
      "title": "The Governor's Cup Coffee Roasters",
      "zipcode": "97301"
    },
    {
      "address": "",
      "city": "Salem",
      "location": {
        "lat": 44.943273,
        "lng": -123.036157
      },
      "state": "OR",
      "title": "Salem Center",
      "zipcode": "97301"
    }
  ]
}